,City,Cloudiness,Country,Date,Humidity,Lat,Lng,Max Temp,Wind Speed
0,isangel,36,VU,1546655867,99,-19.55,169.27,79.08,22.39
1,atuona,44,PF,1546655868,100,-9.8,-139.03,80.47,14.9
2,lebu,0,ET,1546655868,76,8.96,38.73,31.11,2.93
3,provideniya,0,RU,1546655869,100,64.42,-173.23,2.76,12.66
4,punta arenas,40,CL,1546653600,70,-53.16,-70.91,42.8,21.92
5,natal,40,BR,1546653600,83,-5.81,-35.21,80.6,12.75
6,port alfred,8,ZA,1546655870,86,-33.59,26.89,68.37,18.59
7,ingham,0,AU,1546655870,85,-18.65,146.16,82.27,7.63
8,rikitea,92,PF,1546655870,100,-23.12,-134.97,77.19,21.94
9,nanortalik,32,GL,1546655871,88,60.14,-45.24,26.92,14.67
10,mahebourg,40,MU,1546653600,88,-20.41,57.7,80.6,3.36
11,impfondo,20,CD,1546655871,100,1.62,18.06,70.08,2.59
12,tiarei,75,PF,1546655400,58,-17.53,-149.33,87.8,10.29
13,hilo,75,US,1546653180,62,19.71,-155.08,78.08,6.93
14,beringovskiy,88,RU,1546655872,100,63.05,179.32,-8.45,6.85
15,westport,8,IE,1546655873,100,53.8,-9.52,39.75,12.1
16,busselton,0,AU,1546655873,90,-33.64,115.35,70.26,6.73
17,cherskiy,12,RU,1546655874,0,68.75,161.3,-30.95,2.15
18,sokoto,0,NG,1546655874,49,13.06,5.24,58.15,9.19
19,puerto ayora,68,EC,1546655874,100,-0.74,-90.35,75.88,7.85
20,la carolina,0,ES,1546655875,67,38.27,-3.62,21.43,3.15
21,victoria,75,BN,1546653600,74,5.28,115.24,87.8,4.7
22,barrow,0,AR,1546655876,39,-38.31,-60.23,70.62,13.67
23,samarai,64,PG,1546655876,100,-10.62,150.67,82.86,22.95
24,queenstown,32,NZ,1546655775,51,-45.03,168.66,67.78,8.41
25,taseyevo,0,RU,1546655877,33,57.22,94.9,-22.63,2.37
26,butaritari,32,KI,1546655877,100,3.07,172.79,83.94,14.0
27,ushuaia,75,AR,1546653600,70,-54.81,-68.31,42.8,19.46
28,cape town,20,ZA,1546653600,68,-33.93,18.42,66.2,12.75
29,carnarvon,0,ZA,1546655878,54,-30.97,22.13,59.32,9.53
30,maragogi,88,BR,1546655879,91,-9.01,-35.22,77.23,4.61
31,kaitangata,64,NZ,1546655879,41,-46.28,169.85,78.81,24.63
32,nuuk,64,GL,1546653000,72,64.17,-51.74,14.0,8.05
33,huanren,0,CN,1546655616,43,41.26,125.37,11.31,3.15
34,lichinga,64,MZ,1546655880,97,-13.3,35.25,65.94,2.59
35,poum,80,MK,1546655880,88,41.28,20.71,13.47,1.81
36,kuching,75,MY,1546653600,83,1.56,110.34,84.2,2.24
37,saskylakh,24,RU,1546655881,75,71.97,114.09,-17.32,6.4
38,esperance,40,TT,1546653600,83,10.24,-61.45,75.2,5.82
39,ornskoldsvik,32,SE,1546654800,92,63.29,18.72,30.2,4.7
40,grindavik,90,IS,1546653600,100,63.84,-22.43,48.2,24.16
41,cidreira,88,BR,1546655882,86,-30.17,-50.22,69.72,9.64
42,karratha,8,AU,1546655882,42,-20.74,116.85,94.87,10.31
43,luderitz,0,NA,1546655883,72,-26.65,15.16,64.05,22.06
44,avarua,75,CK,1546653600,69,-21.21,-159.78,80.6,13.87
45,port hardy,90,CA,1546653600,100,50.7,-127.42,44.6,2.24
46,labuhan,64,ID,1546655885,65,-2.54,115.51,86.19,3.38
47,tiksi,44,RU,1546655885,70,71.64,128.87,-10.12,14.67
48,hobart,0,AU,1546653600,22,-42.88,147.33,69.8,17.22
49,bredasdorp,92,ZA,1546653600,68,-34.53,20.04,66.2,5.82
50,mataura,32,NZ,1546655886,44,-46.19,168.86,80.52,29.66
51,castro,0,CL,1546653600,87,-42.48,-73.76,51.8,2.24
52,albany,1,US,1546654680,92,42.65,-73.75,32.0,3.71
53,east london,8,ZA,1546655887,98,-33.02,27.91,69.67,21.39
54,naze,0,NG,1546655888,87,5.43,7.07,69.99,3.94
55,veraval,90,FR,1546653600,85,49.65,0.71,41.0,4.7
56,ulaangom,64,MN,1546655888,25,49.98,92.07,-21.55,1.7
57,saint george,90,GR,1546653000,100,39.45,22.34,32.0,5.82
58,hamilton,75,BM,1546653300,94,32.3,-64.78,68.0,9.17
59,kapaa,20,US,1546653360,66,22.08,-159.32,80.06,13.87
60,bluff,0,AU,1546655891,41,-23.58,149.07,92.76,10.09
61,lorengau,32,PG,1546655891,93,-2.02,147.27,85.56,19.71
62,rutland,1,US,1546653360,64,43.61,-72.97,37.94,6.93
63,vaini,0,IN,1546653600,59,15.34,74.49,60.8,6.17
64,oda,75,JP,1546653600,66,35.19,132.5,50.0,6.93
65,cabo san lucas,40,MX,1546653000,77,22.89,-109.91,68.0,3.36
66,tasiilaq,56,GL,1546653000,88,65.61,-37.64,33.8,18.34
67,xocali,0,AZ,1546655893,61,39.91,46.79,24.58,4.94
68,shenzhen,75,CN,1546653600,93,22.54,114.05,64.4,4.47
69,sao gotardo,92,BR,1546655755,96,-19.31,-46.05,65.62,3.94
70,thompson,90,CA,1546653600,85,55.74,-97.86,14.0,8.05
71,baiyin,20,CN,1546653600,72,36.55,104.13,15.8,2.24
72,souillac,0,FR,1546653600,86,45.6,-0.6,33.8,9.17
73,buala,76,SB,1546655896,91,-8.15,159.59,84.07,10.76
74,camopi,92,GF,1546655896,95,3.17,-52.33,74.35,2.71
75,jamestown,0,AU,1546655614,33,-33.21,138.6,73.86,13.56
76,tuktoyaktuk,90,CA,1546653600,84,69.44,-133.03,3.2,8.05
77,maceio,20,BR,1546653600,78,-9.67,-35.74,77.0,3.36
78,las cruces,90,CL,1546653600,82,-33.5,-71.62,59.0,4.7
79,sukhobezvodnoye,88,RU,1546655898,91,57.05,44.89,21.25,4.72
80,sagaing,20,MM,1546651800,87,21.88,95.98,57.2,2.24
81,touros,40,BR,1546653600,83,-5.2,-35.46,80.6,8.05
82,oranjemund,0,ZA,1546655899,93,-28.55,16.43,63.37,21.61
83,kahului,20,US,1546653360,64,20.89,-156.47,78.98,24.16
84,aztec,1,US,1546653180,83,36.82,-107.99,19.04,4.7
85,los llanos de aridane,20,ES,1546653600,63,28.66,-17.92,62.6,9.17
86,lecce,40,IT,1546654800,48,40.36,18.17,41.0,23.04
87,valdivia,0,CL,1546653600,72,-39.81,-73.25,64.4,3.36
88,anamur,75,TR,1546653000,93,36.08,32.84,50.0,6.93
89,quatre cocos,40,MU,1546653600,88,-20.21,57.76,80.6,3.36
90,wanning,75,AT,1546654800,96,48.64,13.53,32.0,19.46
91,dikson,32,RU,1546655902,98,73.51,80.55,-0.22,2.48
92,haveli,92,PK,1546655903,100,33.47,72.12,41.91,3.83
93,flinders,48,AU,1546655903,64,-34.58,150.85,81.55,6.96
94,mtsamboro,0,YT,1546653600,88,-12.7,45.07,80.6,6.93
95,upernavik,68,GL,1546655904,100,72.79,-56.15,13.11,25.3
96,vagur,80,FO,1546655904,93,61.47,-6.81,48.07,15.79
97,manggar,12,ID,1546655904,96,-2.88,108.27,84.97,3.71
98,bethel,90,US,1546654140,95,60.79,-161.76,19.4,8.05
99,deer lake,90,CA,1546653600,79,49.18,-57.43,26.6,3.36
100,manokwari,48,ID,1546655906,100,-0.87,134.08,82.32,10.65
101,nyuksenitsa,68,RU,1546655907,90,60.41,44.24,19.27,5.06
102,ambilobe,80,MG,1546655908,99,-13.19,49.05,73.27,3.38
103,boa vista,40,BR,1546653600,83,2.82,-60.67,77.0,4.7
104,qaanaaq,32,GL,1546655909,89,77.48,-69.36,5.05,10.42
105,adrar,0,DZ,1546655909,80,27.87,-0.29,40.2,9.75
106,venice,90,US,1546654500,94,27.1,-82.45,69.98,3.36
107,guerrero negro,8,MX,1546655910,94,27.97,-114.04,50.46,5.39
108,cascais,0,PT,1546653600,87,38.7,-9.42,46.4,3.36
109,aklavik,90,CA,1546653600,77,68.22,-135.01,1.4,2.24
110,coahuayana,8,MX,1546655911,71,18.62,-100.35,60.58,2.37
111,talakan,8,RU,1546655911,61,50.29,130.28,-7.55,3.71
112,mayaky,0,UA,1546655911,77,47.44,29.56,11.22,2.93
113,vostok,64,RU,1546655912,66,46.45,135.83,7.03,4.61
114,leh,48,IN,1546655912,73,34.16,77.58,-10.3,2.04
115,ponta do sol,100,BR,1546655913,99,-20.63,-46.0,67.29,4.16
116,arraial do cabo,40,BR,1546650000,74,-22.97,-42.02,80.6,4.7
117,kemin,20,KG,1546655913,63,42.79,75.7,-4.4,2.04
118,saint-philippe,90,CA,1546653600,86,45.36,-73.48,35.6,5.82
119,bratsk,0,RU,1546653600,75,56.15,101.63,-14.81,4.94
120,airai,44,TL,1546655914,58,-8.93,125.41,85.56,1.7
121,plettenberg bay,76,ZA,1546655915,99,-34.05,23.37,66.52,17.47
122,naraina,40,IN,1546653600,62,26.78,75.2,53.6,6.93
123,noumea,20,NC,1546655400,38,-22.28,166.46,87.8,6.93
124,hasaki,20,JP,1546653600,35,35.73,140.83,55.4,5.82
125,metkovic,0,HR,1546655916,100,43.05,17.65,15.13,2.82
126,porosozero,56,RU,1546655917,87,62.72,32.71,11.8,3.15
127,longyearbyen,75,NO,1546653000,92,78.22,15.63,28.4,6.93
128,khuzhir,12,RU,1546655918,63,53.19,107.35,-14.98,4.72
129,rong kwang,75,TH,1546653600,88,18.34,100.32,71.6,3.71
130,leningradskiy,24,RU,1546655919,92,69.38,178.42,-15.47,6.17
131,meulaboh,20,ID,1546655919,100,4.14,96.13,81.78,4.61
132,filadelfia,48,PY,1546655920,90,-22.35,-60.04,77.28,8.41
133,san cristobal,0,EC,1546653600,67,-0.39,-78.55,59.0,6.93
134,wawa,0,NG,1546655920,48,9.9,4.41,65.53,8.75
135,camacha,75,PT,1546653600,55,33.08,-16.33,62.6,10.29
136,codrington,32,AU,1546653600,43,-28.95,153.24,95.0,8.05
137,praya,40,ID,1546653600,62,-8.71,116.27,87.8,4.7
138,saldanha,0,PT,1546655923,70,41.42,-6.55,17.52,2.37
139,bagdarin,8,RU,1546655923,40,54.44,113.59,-28.97,3.49
140,tonk,0,IN,1546655923,71,26.16,75.79,54.69,3.83
141,swan river,88,CA,1546655924,95,52.11,-101.27,23.73,4.5
142,nikolskoye,75,RU,1546653600,92,59.7,30.79,19.4,6.71
143,hermanus,64,ZA,1546655924,96,-34.42,19.24,57.88,1.81
144,echirolles,90,FR,1546653600,56,45.14,5.73,32.0,3.36
145,saint-pierre,90,FR,1546653600,81,48.95,4.24,37.4,4.7
146,qaqortoq,64,GL,1546655925,98,60.72,-46.03,22.65,7.18
147,paragominas,32,BR,1546655926,83,-3.0,-47.35,77.82,5.73
148,faanui,0,PF,1546655926,100,-16.48,-151.75,84.57,9.75
149,port elizabeth,90,US,1546654980,82,39.31,-74.98,46.4,4.7
150,proletariy,80,RU,1546655927,92,58.43,31.7,21.21,4.61
151,grass valley,1,US,1546654500,48,39.22,-121.06,46.4,5.82
152,quang ngai,92,VN,1546655928,97,15.12,108.8,71.88,2.59
153,ribeira grande,80,PT,1546655928,100,38.52,-28.7,60.13,18.03
154,severo-kurilsk,48,RU,1546655929,100,50.68,156.12,20.67,4.61
155,fairbanks,1,US,1546653480,72,64.84,-147.72,-27.05,2.26
156,san policarpo,92,PH,1546655929,91,12.18,125.51,80.47,16.69
157,sur,0,OM,1546655930,100,22.57,59.53,72.82,12.66
158,ancud,0,CL,1546653600,87,-41.87,-73.83,51.8,2.24
159,abu kamal,12,SY,1546655930,69,34.45,40.92,44.92,13.67
160,rincon,1,US,1546654500,87,32.3,-81.24,60.98,6.93
161,waingapu,80,ID,1546655931,91,-9.65,120.26,81.28,5.61
162,mount gambier,90,AU,1546653600,87,-37.83,140.78,59.0,8.05
163,kruisfontein,76,ZA,1546655932,88,-34.0,24.73,66.25,18.81
164,kifri,0,IQ,1546655932,74,34.69,44.96,28.77,3.15
165,takoradi,24,GH,1546655932,100,4.89,-1.75,80.79,4.72
166,new norfolk,0,AU,1546653600,22,-42.78,147.06,69.8,17.22
167,san jeronimo,92,PE,1546655933,82,-13.65,-73.37,48.52,0.36
168,bud,92,NO,1546654800,87,62.91,6.91,46.4,5.82
169,chuy,0,UY,1546655934,93,-33.69,-53.46,59.19,6.96
170,scarborough,0,GB,1546653000,75,54.28,-0.41,41.0,5.82
171,bang saphan,90,TH,1546650000,94,11.21,99.51,77.0,24.16
172,verkhnyaya inta,44,RU,1546655935,78,65.99,60.32,9.1,4.61
173,dubbo,20,AU,1546653600,23,-32.25,148.6,98.6,24.16
174,aykhal,48,RU,1546655936,26,65.95,111.51,-18.8,4.27
175,djambala,64,CG,1546655936,97,-2.55,14.76,70.53,5.61
176,ketchikan,1,US,1546653360,60,55.34,-131.65,35.96,10.29
177,avera,1,US,1546654500,70,33.19,-82.53,60.98,12.75
178,chokurdakh,20,RU,1546655937,28,70.62,147.9,-19.12,4.05
179,port lincoln,68,AU,1546655937,82,-34.72,135.86,67.15,15.46
180,sitka,0,US,1546655938,75,37.17,-99.65,28.5,3.71
181,brownsville,1,US,1546654500,79,25.91,-97.49,58.1,5.82
182,adelaide,40,AU,1546653600,43,-34.93,138.6,69.8,18.34
183,wilmington island,1,US,1546654500,77,32.0,-80.97,60.98,12.75
184,mar del plata,64,AR,1546655691,33,-46.43,-67.52,69.27,18.03
185,pevek,0,RU,1546655939,100,69.7,170.27,-24.97,4.94
186,ostrovnoy,56,RU,1546655939,86,68.05,39.51,12.07,12.77
187,yellowknife,90,CA,1546653600,77,62.45,-114.38,-0.41,2.24
188,port-cartier,90,CA,1546653600,85,50.03,-66.88,19.4,4.7
189,imphal,0,IN,1546655940,73,24.8,93.94,55.14,2.04
190,mattru,20,SL,1546655941,82,7.62,-11.83,76.15,3.94
191,batsfjord,56,NO,1546655941,100,70.63,29.72,30.48,5.61
192,bambous virieux,40,MU,1546653600,88,-20.34,57.76,80.6,3.36
193,chimbote,0,PE,1546655942,92,-9.08,-78.59,67.02,6.73
194,vila velha,75,BR,1546653600,78,-3.71,-38.6,82.4,14.99
195,chalinze,0,TZ,1546655943,92,-6.64,38.35,73.5,3.94
196,martinsburg,90,US,1546654860,100,39.46,-77.96,42.8,4.7
197,monze,92,ZM,1546655944,99,-16.28,27.48,65.17,3.94
198,beloha,12,MG,1546655944,93,-25.17,45.06,69.58,2.59
199,makakilo city,1,US,1546653420,50,21.35,-158.09,80.96,10.29
200,kavieng,32,PG,1546655945,96,-2.57,150.8,85.74,18.81
201,sarab,64,IR,1546655945,89,38.61,44.99,17.07,2.71
202,san patricio,88,PY,1546655946,87,-26.98,-56.83,76.6,2.71
203,byron bay,32,AU,1546653600,62,-28.65,153.62,95.0,19.46
204,khatanga,24,RU,1546655946,27,71.98,102.47,-18.35,9.53
205,guilin,90,CN,1546653600,93,25.28,110.29,44.6,4.47
206,borisoglebskiy,90,RU,1546653600,92,57.26,39.15,21.2,4.47
207,vao,76,EE,1546655947,90,59.1,26.19,21.57,8.19
208,marshall,1,US,1546654500,91,39.39,-87.69,39.02,5.82
209,otradnoye,75,RU,1546653600,92,59.77,30.8,19.4,6.71
210,kenai,1,US,1546653360,86,60.55,-151.26,3.92,6.93
211,jacareacanga,0,BR,1546655949,96,-6.22,-57.76,76.83,2.04
212,miri,0,NG,1546655949,53,10.31,9.75,54.55,4.94
213,muli,8,IN,1546655950,73,22.62,71.45,52.44,3.27
214,srandakan,0,ID,1546655950,80,-7.94,110.25,83.98,3.83
215,husavik,76,CA,1546655950,83,50.56,-96.99,21.75,2.71
216,kutum,20,SD,1546655951,75,14.2,24.66,50.82,2.93
217,maniitsoq,56,GL,1546655951,100,65.42,-52.9,13.92,10.65
218,colares,0,PT,1546653600,87,38.8,-9.45,46.4,3.36
219,villa bruzual,44,VE,1546655952,65,9.33,-69.12,80.61,3.38
220,biak,20,ID,1546655952,87,-0.91,122.88,84.3,1.59
221,preeceville,76,CA,1546655953,94,51.95,-102.67,23.01,5.61
222,lompoc,1,US,1546653480,71,34.64,-120.46,51.08,3.36
223,cloquet,1,US,1546654560,100,46.72,-92.46,32.0,8.3
224,jardim,12,BR,1546655954,79,-21.48,-56.15,79.3,6.85
225,olinda,40,EC,1546653600,70,-2.03,-79.75,84.2,9.17
226,georgetown,40,GY,1546653600,88,6.8,-58.16,75.2,6.93
227,san pedro,0,AR,1546655956,65,-33.68,-59.66,68.1,9.31
228,alekseyevsk,0,RU,1546655956,70,57.84,108.35,-16.55,3.71
229,villamontes,56,BO,1546655956,92,-21.26,-63.47,70.44,1.7
230,kangaatsiaq,76,GL,1546655957,100,68.31,-53.46,11.35,10.2
231,najran,5,SA,1546653600,66,17.54,44.22,53.6,1.59
232,emerald,0,AU,1546655958,42,-23.53,148.16,92.94,9.42
233,geraldton,75,CA,1546653600,85,49.72,-86.95,24.8,5.82
234,henties bay,8,NA,1546655958,100,-22.12,14.28,61.98,4.94
235,hami,0,CN,1546655959,53,42.84,93.51,3.03,0.47
236,mastic beach,1,US,1546653360,85,40.77,-72.85,44.06,8.08
237,omboue,88,GA,1546655959,100,-1.57,9.26,80.52,5.5
238,mehamn,88,NO,1546655959,79,71.03,27.85,24.63,4.38
239,sabang,64,PH,1546655960,86,13.72,123.58,80.52,12.88
240,ilulissat,36,GL,1546653000,72,69.22,-51.1,15.8,13.87
241,oriximina,80,BR,1546655961,96,-1.77,-55.87,76.11,4.16
242,cap malheureux,40,MU,1546653600,88,-19.98,57.61,80.6,3.36
243,moose factory,90,CA,1546653600,86,51.26,-80.61,30.2,8.05
244,volos,75,GR,1546653000,100,39.36,22.94,32.0,14.99
245,pacific grove,1,US,1546654800,73,36.62,-121.92,51.98,6.93
246,namtsy,32,RU,1546653600,65,62.72,129.66,-34.61,2.24
247,mount isa,32,AU,1546653600,27,-20.73,139.49,98.6,6.93
248,phan thiet,0,VN,1546655963,83,10.93,108.1,81.96,18.25
249,sao felix do xingu,24,BR,1546655963,100,-6.64,-51.99,72.6,2.48
250,honiara,80,SB,1546655963,95,-9.43,159.96,78.85,4.94
251,dalvik,36,SE,1546654800,94,57.79,14.13,32.0,3.36
252,kununurra,0,AU,1546653780,55,-15.77,128.74,89.6,5.82
253,alyangula,0,AU,1546653600,38,-13.85,136.42,93.2,5.82
254,kitob,75,UZ,1546653600,93,39.12,66.88,37.4,4.7
255,lebyazhye,75,RU,1546653600,92,59.96,29.42,19.4,6.71
256,muisne,0,EC,1546655966,95,0.61,-80.02,70.44,2.93
257,madimba,75,CM,1546650000,94,4.42,9.93,78.8,3.36
258,taoudenni,0,ML,1546655966,46,22.68,-3.98,46.9,11.43
259,pisco,0,PE,1546653600,88,-13.71,-76.2,71.6,13.87
260,aswan,20,EG,1546655967,96,24.09,32.9,43.12,3.38
261,atambua,64,ID,1546655968,95,-9.11,124.89,83.31,6.62
262,gra liyia,75,GR,1546653000,87,35.02,25.68,46.4,5.82
263,huarmey,20,PE,1546655968,89,-10.07,-78.15,62.7,3.38
264,vangaindrano,0,MG,1546655968,96,-23.35,47.6,71.16,2.93
265,bonavista,36,CA,1546655969,100,48.65,-53.11,21.25,14.0
266,dabat,0,ET,1546655969,27,12.98,37.77,38.17,2.26
267,ternate,40,PH,1546653600,62,14.29,120.72,84.2,13.87
268,sai buri,75,TH,1546653600,83,6.7,101.62,80.6,5.82
269,nongan,0,CN,1546653600,46,44.43,125.17,6.8,4.47
270,dauriya,0,RU,1546655971,64,49.93,116.85,-9.8,4.83
271,dunedin,68,NZ,1546655971,52,-45.87,170.5,78.18,14.79
272,constitucion,5,MX,1546652400,19,23.99,-104.67,57.2,3.36
273,tuburan,90,PH,1546653600,69,10.73,123.82,82.4,14.99
274,mecca,0,SA,1546655681,85,21.43,39.83,59.28,2.71
275,wakkanai,75,JP,1546653600,73,45.41,141.67,26.6,26.4
276,roma,0,IT,1546654800,63,41.89,12.48,32.0,3.36
277,hobyo,76,SO,1546655974,82,5.35,48.53,76.2,19.71
278,culebra,1,US,1546653300,90,34.68,-105.77,26.96,5.82
279,victor harbor,40,AU,1546653600,43,-35.55,138.62,69.8,18.34
280,kargil,76,PK,1546655975,76,34.56,76.13,-5.26,0.81
281,nkhotakota,92,MW,1546655975,100,-12.93,34.3,72.87,3.15
282,sao filipe,0,CV,1546655976,95,14.9,-24.5,73.14,14.12
283,inuvik,90,CA,1546653600,77,68.36,-133.71,1.4,2.24
284,hithadhoo,92,MV,1546655977,100,-0.6,73.08,79.44,6.06
285,tipuani,56,BO,1546655977,92,-15.56,-68.02,66.75,1.81
286,rocha,0,UY,1546655977,73,-34.48,-54.34,59.19,6.73
287,debre tabor,0,ET,1546655978,39,11.86,38.01,39.57,4.27
288,narsaq,36,GL,1546655978,61,60.91,-46.05,-0.58,0.25
289,itoman,75,JP,1546653600,78,26.12,127.67,73.4,18.34
290,kalispell,90,US,1546653300,66,48.2,-114.32,39.02,5.82
291,nemuro,75,JP,1546653600,58,43.32,145.57,30.2,8.05
292,barsovo,0,RU,1546653600,84,61.17,73.17,5.0,8.95
293,hovd,75,NO,1546653000,93,63.83,10.7,42.8,20.8
294,viedma,0,AR,1546655726,58,-40.81,-62.99,61.93,4.5
295,chkalovsk,90,RU,1546653600,85,56.76,43.24,23.0,4.47
296,galveston,1,US,1546655700,95,40.58,-86.19,38.84,5.82
297,ayorou,0,NE,1546655939,47,14.73,0.92,56.85,11.88
298,palana,32,RU,1546655981,59,59.08,159.95,-13.18,0.69
299,bubaque,24,GW,1546655982,100,11.28,-15.83,77.5,10.31
300,deep river,90,CA,1546653600,90,46.1,-77.49,33.8,2.24
301,torbay,90,CA,1546653600,85,47.66,-52.73,21.2,5.82
302,broken hill,88,AU,1546653600,33,-31.97,141.45,73.4,25.28
303,margate,0,AU,1546653600,22,-43.03,147.26,69.8,17.22
304,alibag,20,IN,1546653600,53,18.64,72.88,71.6,8.63
305,prince rupert,90,CA,1546654200,100,54.32,-130.32,37.4,2.71
306,pochutla,20,MX,1546652460,69,15.74,-96.47,80.6,5.73
307,sao joao da barra,92,BR,1546655984,100,-21.64,-41.05,74.98,12.21
308,batemans bay,80,AU,1546655984,93,-35.71,150.18,72.06,8.08
309,yatou,75,CM,1546650000,94,3.63,9.81,78.8,3.36
310,shorapani,92,GE,1546653600,100,42.1,43.08,42.8,1.12
311,zhengjiatun,0,CN,1546655985,32,43.51,123.51,11.76,5.61
312,atar,64,MR,1546655986,34,20.52,-13.05,55.45,7.96
313,mitsamiouli,0,KM,1546655986,100,-11.38,43.28,80.2,3.6
314,zetaquira,36,CO,1546655986,100,5.28,-73.17,47.58,0.47
315,rassvet,75,MD,1546655400,86,47.2,28.43,26.6,5.82
316,sao sebastiao,76,BR,1546655987,100,-3.15,-58.36,74.22,3.49
317,palmares,92,BR,1546655988,95,-8.68,-35.59,71.52,3.04
318,katobu,88,ID,1546655988,84,-4.94,122.53,86.05,3.15
319,wangkui,0,CN,1546655988,59,46.83,126.5,1.9,7.29
320,finnsnes,88,NO,1546654800,100,69.23,17.98,33.8,14.99
321,marsh harbour,48,BS,1546655713,99,26.54,-77.06,77.68,17.13
322,nome,1,US,1546654500,86,30.04,-94.42,48.02,6.4
323,charters towers,0,AU,1546655990,63,-20.07,146.27,87.27,6.29
324,semey,75,KZ,1546653600,75,50.41,80.25,-14.81,6.71
325,la rioja,64,AR,1546655991,71,-29.41,-66.86,75.88,4.72
326,santiago de cao,75,PE,1546653600,83,-7.96,-79.24,73.4,9.17
327,saint-augustin,0,FR,1546653600,92,44.83,-0.61,30.2,2.24
328,iqaluit,90,CA,1546653600,75,63.75,-68.52,-13.01,9.17
329,minden,1,US,1546654500,59,38.95,-119.77,39.92,5.82
330,ponta delgada,75,PT,1546653600,93,37.73,-25.67,62.6,10.29
331,sassandra,12,CI,1546655993,100,4.95,-6.09,81.28,9.64
332,malindi,80,KE,1546655993,94,-3.22,40.12,78.67,9.98
333,cockburn town,0,TC,1546655820,100,21.46,-71.14,78.72,21.61
334,dongobesh,0,TZ,1546655994,90,-4.07,35.37,54.28,3.6
335,kunstat,75,CZ,1546654560,97,49.51,16.52,32.0,6.93
336,lagoa,0,PT,1546653600,71,37.14,-8.45,51.8,9.17
337,borovoy,44,RU,1546655995,74,63.23,52.89,5.55,5.95
338,along,0,IN,1546655995,46,28.17,94.8,45.73,2.04
339,tahe,0,CN,1546655996,47,52.34,124.71,5.77,5.61
340,aasiaat,64,GL,1546655996,100,68.71,-52.87,15.18,15.46
341,pangnirtung,0,CA,1546655997,0,66.15,-65.72,-30.46,4.27
342,kilemary,88,RU,1546655997,88,56.78,46.86,17.25,6.73
343,bilibino,32,RU,1546655997,0,68.06,166.44,-42.52,2.37
344,ballina,12,IE,1546655998,100,54.11,-9.15,32.77,9.64
345,cordoba,0,CO,1546655998,87,5.59,-73.79,46.05,1.7
346,hofn,92,IS,1546655998,89,64.25,-15.21,45.06,16.24
347,pella,1,US,1546654500,93,41.41,-92.92,39.2,10.29
348,saint-louis,90,CH,1546654800,86,47.59,7.56,35.6,2.24
349,fukue,75,JP,1546653600,70,35.03,136.69,48.2,11.41
350,keti bandar,32,PK,1546656000,94,24.14,67.45,74.04,11.99
351,salalah,0,OM,1546653000,77,17.01,54.1,66.2,3.36
352,celestun,36,MX,1546656001,100,20.87,-90.4,74.13,18.92
353,kletskaya,80,RU,1546656001,98,49.31,43.06,32.91,16.02
354,toccoa,40,US,1546654500,80,34.58,-83.33,50.0,9.17
355,honningsvag,88,NO,1546656002,100,70.98,25.97,29.35,4.72
356,sept-iles,90,CA,1546653600,85,50.2,-66.38,19.4,4.7
357,yarada,0,IN,1546653600,88,17.65,83.27,66.2,2.24
358,tuatapere,56,NZ,1546656003,72,-46.13,167.69,68.68,22.5
359,broome,8,GB,1546654800,86,52.47,1.45,41.0,6.93
360,inhambane,76,MZ,1546656003,100,-23.87,35.38,75.84,6.29
361,caravelas,0,BR,1546656003,100,-17.73,-39.27,79.98,22.06
362,bereda,0,ES,1546653600,82,43.27,-7.54,32.0,5.82
363,kimparana,20,ML,1546656004,32,12.83,-4.92,60.45,8.52
364,lata,88,IN,1546656004,100,30.78,78.62,35.43,1.7
365,bemidji,1,US,1546654500,95,47.48,-94.89,27.86,12.21
366,reims,90,FR,1546653600,81,49.26,4.03,37.4,6.93
367,coolum beach,92,AU,1546656005,73,-26.53,153.09,80.61,6.62
368,sergeyevka,56,KZ,1546656006,76,53.88,67.42,5.46,15.35
369,weligama,8,LK,1546656006,100,5.97,80.42,77.91,5.06
370,pemba,68,MZ,1546656006,100,-12.97,40.52,82.5,9.86
371,smithers,90,CA,1546653600,86,54.78,-127.17,26.6,3.36
372,fort nelson,75,CA,1546653600,92,58.81,-122.69,6.8,2.59
373,dalbandin,0,PK,1546656007,73,28.9,64.41,40.42,3.6
374,deputatskiy,20,RU,1546656008,41,69.3,139.9,-27.76,2.71
375,norman wells,90,CA,1546653600,78,65.28,-126.83,8.6,10.29
376,umm kaddadah,12,SD,1546656009,41,13.6,26.69,57.84,9.75
377,shenjiamen,100,CN,1546656009,100,29.96,122.3,51.81,16.35
378,healdsburg,20,US,1546654500,87,38.61,-122.87,50.0,12.66
379,santa rosa,0,AR,1546656011,42,-36.62,-64.29,72.96,12.21
380,kikwit,68,CD,1546656012,99,-5.04,18.82,69.72,3.15
381,yumen,12,CN,1546656012,50,40.29,97.04,1.5,2.59
382,buraydah,0,SA,1546653600,87,26.33,43.97,48.2,3.36
383,marzuq,0,YE,1546656013,68,14.4,46.47,36.69,2.37
384,nangong,12,CN,1546656013,63,37.36,115.37,29.98,4.16
385,surt,0,LY,1546656013,100,31.21,16.59,50.68,20.71
386,chalus,0,IR,1546653600,80,36.66,51.42,41.0,2.24
387,kaeo,12,NZ,1546656014,47,-35.1,173.78,82.32,7.85
388,mitzic,92,GA,1546656014,97,0.78,11.55,72.24,2.26
389,necochea,0,AR,1546656014,59,-38.55,-58.74,64.9,13.78
390,kodiak,1,US,1546654500,44,39.95,-94.76,41.0,5.82
391,warman,75,CA,1546653600,92,52.32,-106.58,24.8,10.29
392,camocim,48,BR,1546656015,86,-2.9,-40.84,78.54,11.65
393,turayf,20,SA,1546653600,70,31.68,38.65,42.8,13.87
394,popondetta,88,PG,1546656016,91,-8.77,148.24,73.0,2.15
395,zhangye,0,CN,1546656016,43,38.94,100.46,17.61,8.97
396,gravdal,90,NO,1546654800,100,59.79,5.78,46.4,17.22
397,svetlogorsk,20,RU,1546653600,77,53.14,59.15,-2.21,10.76
398,champerico,20,MX,1546652640,69,16.38,-93.6,75.2,9.17
399,asosa,8,ET,1546656018,63,10.07,34.53,52.8,2.59
400,lambarene,80,GA,1546656018,99,-0.7,10.22,74.94,2.26
401,jiaozuo,56,CN,1546656019,54,35.21,113.25,30.84,3.38
402,tomatlan,12,MX,1546656019,90,19.93,-105.25,67.74,2.15
403,nakusp,80,CA,1546656019,85,50.24,-117.8,28.59,1.7
404,leshukonskoye,48,RU,1546656020,68,64.9,45.76,2.22,4.38
405,ghanzi,0,BW,1546656020,92,-21.7,21.65,65.76,6.73
406,tapejara,48,BR,1546656020,96,-23.73,-52.87,71.47,5.17
407,port moresby,92,PG,1546656021,100,-9.47,147.16,77.5,21.94
408,sisimiut,64,GL,1546655824,100,66.94,-53.67,8.07,5.61
409,greystones,75,IE,1546653600,75,53.14,-6.06,42.8,6.93
410,lakes entrance,92,AU,1546656022,100,-37.88,147.99,60.54,10.42
411,laibin,92,CN,1546656022,100,23.74,109.23,44.92,10.2
412,san pedro de macoris,20,DO,1546653600,88,18.46,-69.3,73.4,4.7
413,langxiang,0,CN,1546656023,50,46.95,128.87,4.78,3.94
414,vanimo,80,PG,1546656023,100,-2.67,141.3,82.63,21.39
415,carutapera,88,BR,1546656023,92,-1.2,-46.02,78.54,8.63
416,tyubuk,88,RU,1546656024,78,56.05,60.94,8.88,4.61
417,ahipara,8,NZ,1546656024,62,-35.17,173.16,77.01,8.63
418,treinta y tres,0,UY,1546656025,68,-33.23,-54.39,60.36,9.19
419,petropavlovsk-kamchatskiy,0,RU,1546653600,41,53.05,158.65,3.2,6.71
420,tual,48,ID,1546656025,100,-5.67,132.75,80.61,13.0
421,mopipi,0,BW,1546656026,95,-21.2,24.86,67.29,7.85
422,turbat,0,PK,1546656026,29,26.0,63.05,56.08,10.42
423,nhulunbuy,36,AU,1546653600,70,-12.18,136.78,86.0,10.29
424,portland,90,US,1546653180,83,45.52,-122.67,50.0,10.29
425,zhezkazgan,0,KZ,1546653600,76,47.8,67.71,-4.01,13.42
426,ronne,90,FR,1546653600,74,48.45,0.83,39.2,4.7
427,te anau,8,NZ,1546656028,50,-45.41,167.72,72.78,21.72
428,yulara,20,AU,1546653600,22,-25.24,130.99,87.8,16.11
429,vila franca do campo,75,PT,1546653600,93,37.72,-25.43,62.6,10.29
430,kokopo,44,PG,1546656029,100,-4.34,152.27,81.55,13.22
431,praia da vitoria,40,PT,1546653600,100,38.73,-27.07,59.0,9.19
432,yalova,75,TR,1546654800,100,40.66,29.27,37.4,16.11
433,port keats,8,AU,1546656030,72,-14.25,129.55,93.48,14.79
434,mandalgovi,64,MN,1546656030,70,45.76,106.27,-1.75,8.75
435,bilma,8,NE,1546656031,39,18.69,12.92,45.69,9.86
436,bandarbeyla,80,SO,1546656031,100,9.49,50.81,76.2,21.16
437,bykovo,92,RU,1546656031,97,49.76,45.39,35.38,20.71
438,metro,44,ID,1546656032,80,-5.11,105.31,85.29,4.38
439,lazaro cardenas,5,MX,1546652520,42,28.39,-105.62,44.6,3.36
440,kerema,88,PG,1546656033,87,-7.96,145.78,78.99,5.73
441,quirinopolis,76,BR,1546656033,87,-18.45,-50.45,75.52,3.27
442,saint anthony,1,US,1546653360,74,43.97,-111.68,21.92,3.36
443,kharp,32,RU,1546656034,57,66.82,65.8,-5.89,6.96
444,kudahuvadhoo,8,MV,1546656034,100,2.67,72.89,82.77,12.44
445,talnakh,68,RU,1546656035,81,69.49,88.39,9.82,16.69
446,baghdad,0,IQ,1546653600,100,33.3,44.38,42.8,5.82
447,kazachinskoye,44,RU,1546656035,25,57.69,93.28,-17.14,4.72
448,ilhabela,92,BR,1546656035,100,-23.78,-45.36,75.25,8.86
449,ampanihy,56,MG,1546656036,89,-24.69,44.75,68.32,2.71
450,balkanabat,20,TM,1546656036,80,39.51,54.36,23.95,2.26
451,banamba,48,ML,1546656037,32,13.55,-7.45,58.83,7.63
452,lingao,92,CN,1546656037,99,19.91,109.69,70.26,6.73
453,puerto escondido,20,MX,1546652460,69,15.86,-97.07,80.6,6.85
454,tabou,56,CI,1546656038,100,4.42,-7.36,77.28,7.74
455,tezu,0,IN,1546656038,39,27.93,96.16,50.19,1.81
456,havre-saint-pierre,90,CA,1546653600,92,50.23,-63.6,19.4,2.24
457,paita,12,PE,1546656039,77,-5.09,-81.11,73.63,5.39
458,carballo,0,ES,1546653600,83,43.21,-8.69,32.0,5.82
459,ugoofaaru,8,MV,1546656039,100,5.67,73.0,82.32,18.59
460,sotouboua,20,TG,1546656040,42,8.56,0.98,67.33,8.97
461,suda,90,RU,1546653600,100,59.15,37.56,19.4,2.24
462,kirakira,48,SB,1546656040,100,-10.46,161.92,83.53,14.12
463,nanpiao,0,CN,1546656040,22,41.1,120.75,19.59,7.4
464,vardo,90,US,1546654860,100,39.62,-77.74,42.8,4.7
465,yar-sale,12,RU,1546656041,71,66.83,70.83,1.68,7.74
466,hammond,1,US,1546654500,93,30.5,-90.46,51.98,5.17
467,minab,0,IR,1546655400,93,27.15,57.07,60.8,2.24
468,acajutla,0,SV,1546655745,98,13.59,-89.83,72.1,3.15
469,aitape,56,PG,1546656043,85,-3.15,142.36,84.21,15.01
470,galesong,20,ID,1546653600,70,-5.32,119.37,87.8,2.24
471,mayo,90,CA,1546653600,84,63.59,-135.9,-2.21,2.71
472,salinas,1,US,1546654800,87,36.67,-121.66,51.98,7.07
473,helong,92,CN,1546656051,100,25.94,116.13,45.15,3.49
474,dingle,44,PH,1546656052,83,11.0,122.67,79.62,16.69
475,pachino,20,IT,1546656052,100,36.72,15.09,45.15,19.6
476,sinnamary,92,GF,1546656053,97,5.38,-52.96,78.63,14.0
477,nabire,20,ID,1546656053,70,-3.36,135.5,84.03,2.71
478,lucea,20,JM,1546653600,78,18.44,-78.17,78.8,2.24
479,fare,20,PF,1546656054,96,-16.7,-151.02,84.7,11.21
480,kiruna,0,SE,1546654800,92,67.86,20.23,8.6,9.17
481,mino,75,JP,1546654560,75,35.54,136.91,46.4,4.7
482,aranos,76,NA,1546656055,88,-24.14,19.11,65.17,8.41
483,quimper,0,FR,1546653600,96,48.0,-4.1,32.0,4.7
484,gobabis,36,NA,1546656055,89,-22.45,18.97,66.03,6.29
485,clyde river,75,CA,1546653600,74,70.47,-68.59,-22.01,3.36
486,basco,1,US,1546655700,76,40.33,-91.2,40.64,6.93
487,key west,1,US,1546654560,100,47.93,-96.78,26.24,6.93
488,seymchan,36,RU,1546656057,29,62.93,152.39,-21.19,2.71
489,kieta,92,PG,1546656057,85,-6.22,155.63,85.47,9.19
490,coquimbo,0,CL,1546653600,87,-29.95,-71.34,59.0,1.25
491,jalu,0,LY,1546656058,81,29.03,21.55,37.72,4.72
492,predivinsk,20,RU,1546656058,73,57.07,93.44,-16.96,3.6
493,champasak,40,LA,1546653600,61,14.89,105.88,78.8,2.24
494,zhangjiakou,20,CN,1546656059,33,40.77,114.88,8.61,4.16
495,balikpapan,20,ID,1546653600,66,-1.24,116.86,86.0,6.93
496,puerto leguizamo,0,CO,1546656059,92,-0.19,-74.78,75.43,0.81
497,dolgoderevenskoye,75,RU,1546653600,78,55.34,61.34,8.6,4.47
498,salvador,20,BR,1546653600,78,-12.98,-38.48,80.6,12.75
499,maicao,0,CO,1546656061,68,11.38,-72.24,80.38,19.82
500,laguna,5,MX,1546652580,44,27.52,-110.01,60.8,5.82
501,klaksvik,64,FO,1546654800,100,62.23,-6.59,46.4,8.05
502,vestmannaeyjar,92,IS,1546656062,95,63.44,-20.27,46.9,23.29
503,chapleau,75,CA,1546653600,92,47.85,-83.4,30.2,8.05
504,cairns,8,AU,1546653600,55,-16.92,145.77,87.8,9.17
505,kloulklubed,90,PW,1546653000,74,7.04,134.26,84.2,8.05
506,yeppoon,75,AU,1546653600,51,-23.13,150.74,86.0,13.87
507,navoloki,80,RU,1546656064,93,57.47,41.96,23.68,7.4
508,jimenez,20,PA,1546653600,94,8.54,-82.37,78.8,3.36
509,acari,76,BR,1546656065,66,-6.44,-36.64,75.52,8.63
510,grand island,1,US,1546654500,89,40.92,-98.34,37.94,10.29
511,bonthe,20,SL,1546656066,93,7.53,-12.5,78.22,3.6
512,talcahuano,0,CL,1546653600,87,-36.72,-73.12,57.2,6.93
513,hoquiam,90,US,1546653180,92,46.98,-123.89,48.92,5.82
514,agadez,0,NE,1546656066,75,16.97,7.99,45.1,2.59
515,roald,92,NO,1546654800,100,62.58,6.12,46.4,6.93
516,mineiros,12,BR,1546656023,91,-17.57,-52.55,68.91,2.71
517,north bend,76,US,1546655934,85,43.41,-124.22,45.28,4.5
518,barkly west,0,ZA,1546653600,46,-28.54,24.52,69.8,6.93
519,anadyr,0,RU,1546653600,75,64.73,177.51,-20.21,4.47
520,uspenka,80,UA,1546656069,93,48.39,39.16,24.54,11.88
521,yenagoa,0,NG,1546656069,96,4.92,6.26,75.07,5.73
522,kozhevnikovo,80,RU,1546656069,70,56.26,83.98,-1.52,8.97
523,halifax,90,CA,1546653600,100,44.65,-63.58,33.8,12.75
524,shubarshi,0,KZ,1546656070,62,48.59,57.19,0.69,12.66
525,challans,0,FR,1546653600,100,46.85,-1.88,28.4,3.36
526,nuevo progreso,90,US,1546654500,50,26.05,-97.95,59.0,6.93
527,brigantine,90,US,1546654980,82,39.41,-74.36,46.4,4.7
528,wajir,32,KE,1546656072,64,1.75,40.07,77.5,5.5
529,semirom,0,IR,1546656072,50,31.41,51.57,3.07,2.26
530,komsomolskiy,80,RU,1546656072,79,67.55,63.78,6.45,11.65
531,dawson creek,90,CA,1546653600,92,55.76,-120.23,17.6,2.93
532,mirador,20,BR,1546656073,78,-6.37,-44.36,76.02,7.4
533,pozo colorado,44,PY,1546656073,95,-23.49,-58.8,76.38,1.92
534,atasu,0,KZ,1546656074,59,48.68,71.64,-13.18,10.09
535,santa ana,0,SV,1546653000,73,13.99,-89.56,77.0,6.93
536,salta,75,AR,1546653600,94,-24.79,-65.41,71.6,2.15
537,shiyan,76,CN,1546656075,76,32.65,110.78,32.91,2.82
538,san simon de la laguna,40,MX,1546652760,50,19.3,-100.08,53.6,3.36
539,simao,20,CN,1546656076,80,22.76,100.79,58.15,2.82
540,college,1,US,1546653480,72,64.86,-147.8,-27.05,2.26
541,warrington,90,GB,1546654800,75,53.39,-2.59,41.0,9.17
542,tiruchchendur,40,IN,1546653600,73,8.48,78.12,75.2,3.36
543,namibe,80,AO,1546656077,100,-15.19,12.15,74.58,2.37
544,birao,0,CF,1546656078,45,10.3,22.78,64.23,7.74
545,half moon bay,20,US,1546653360,45,37.46,-122.43,57.02,17.02
546,kaset sombun,92,TH,1546656078,61,16.28,101.95,76.15,5.61
547,burgeo,88,CA,1546656079,100,47.61,-57.61,33.45,28.77
548,pyu,8,MM,1546656079,71,18.48,96.43,73.5,3.15
549,havelock,75,US,1546654920,96,34.88,-76.9,62.06,9.17
550,washington,90,US,1546654980,95,38.9,-77.04,46.94,6.4
551,eyl,92,SO,1546656080,100,7.98,49.82,73.59,19.26
552,cuiluan,0,CN,1546656081,61,47.72,128.65,0.73,4.38
553,hengyang,92,CN,1546656081,100,26.89,112.6,37.9,5.17
554,lasa,40,CY,1546653600,93,34.92,32.53,51.8,5.82
555,clarence town,44,AU,1546653600,27,-32.59,151.78,100.4,18.34
556,spornoye,90,RU,1546653600,100,50.84,37.29,24.8,8.95
557,kavaratti,0,IN,1546656083,100,10.57,72.64,82.32,5.95
558,kang,12,BW,1546656083,88,-23.67,22.79,67.2,7.96
559,bogoslovka,68,RU,1546656084,73,56.8,86.72,-6.16,6.73
560,ostuni,40,IT,1546654800,48,40.73,17.58,41.0,23.04
561,sirsi,0,IN,1546656084,52,14.62,74.84,66.84,11.54
562,vitim,68,RU,1546656085,59,59.44,112.57,-2.38,7.18
