,City,Cloudiness,Country,Date,Humidity,Lat,Lng,Max Temp,Wind Speed
0,bredasdorp,0,ZA,1546588800,57,-34.53,20.04,78.8,6.93
1,atuona,88,PF,1546589616,100,-9.8,-139.03,77.58,14.7
2,lazo,48,MD,1546589981,94,47.89,27.93,20.57,7.76
3,cidreira,92,BR,1546589732,100,-30.17,-50.22,68.36,5.75
4,kalabo,92,ZM,1546589981,100,-15.0,22.67,71.51,4.97
5,hobart,75,AU,1546587000,77,-42.88,147.33,66.2,11.41
6,lavrentiya,48,RU,1546589713,100,65.58,-170.99,13.41,12.68
7,eureka,1,US,1546588500,92,40.8,-124.16,48.2,4.7
8,marabba,8,SD,1546589982,32,12.35,32.18,88.07,11.45
9,akureyri,80,IS,1546589982,93,65.68,-18.09,35.15,5.75
10,mount isa,40,AU,1546587000,78,-20.73,139.49,80.6,23.04
11,vaini,0,IN,1546585200,24,15.34,74.49,82.4,11.41
12,ushuaia,75,AR,1546585200,75,-54.81,-68.31,46.4,4.7
13,riyadh,0,SA,1546588800,31,24.63,46.72,60.8,9.17
14,emba,75,CY,1546587000,82,34.81,32.42,64.4,17.22
15,atikokan,32,CA,1546589984,91,48.76,-91.62,23.27,4.97
16,kirakira,100,SB,1546589984,100,-10.46,161.92,76.64,2.17
17,sovetskiy,88,RU,1546589985,90,56.76,48.47,16.83,10.22
18,arraial do cabo,32,BR,1546589638,94,-22.97,-42.02,76.55,12.01
19,touros,0,BR,1546585200,94,-5.2,-35.46,73.4,4.7
20,itarema,80,BR,1546589985,94,-2.92,-39.92,77.18,11.34
21,albany,90,US,1546588320,66,42.65,-73.75,35.06,4.7
22,ullapool,64,GB,1546589986,100,57.9,-5.16,46.8,18.5
23,saint-philippe,90,CA,1546588500,92,45.36,-73.48,30.2,8.05
24,cherskiy,56,RU,1546589665,33,68.75,161.3,-22.82,4.97
25,inirida,56,CO,1546589987,85,3.87,-67.92,75.65,2.73
26,busselton,0,AU,1546589622,97,-33.64,115.35,68.4,15.82
27,port elizabeth,1,US,1546588440,92,39.31,-74.98,33.08,5.17
28,port alfred,0,ZA,1546589619,68,-33.59,26.89,76.23,10.89
29,warwick,90,US,1546588560,71,41.7,-71.42,37.04,3.36
30,butaritari,92,KI,1546589630,100,3.07,172.79,81.59,22.19
31,sorland,40,NO,1546588200,80,67.67,12.69,42.8,3.36
32,kamaishi,75,JP,1546585200,69,39.28,141.86,37.4,5.82
33,gat,68,SN,1546587000,18,14.69,-16.54,68.0,11.41
34,khatanga,36,RU,1546589620,73,71.98,102.47,-10.8,7.09
35,jamestown,36,AU,1546589634,38,-33.21,138.6,81.77,15.59
36,mahebourg,75,MU,1546588800,70,-20.41,57.7,87.8,11.41
37,san vicente,0,SV,1546588200,78,13.64,-88.78,73.4,3.36
38,upernavik,24,GL,1546589677,100,72.79,-56.15,11.16,15.48
39,sept-iles,75,CA,1546586340,70,50.2,-66.38,-4.01,6.93
40,canete,20,IT,1546588200,71,46.33,9.49,5.0,4.7
41,chunskiy,0,RU,1546589991,69,56.08,99.63,-10.22,3.74
42,punta arenas,75,CL,1546585200,81,-53.16,-70.91,50.0,19.46
43,salalah,0,OM,1546584600,57,17.01,54.1,78.8,2.24
44,carnarvon,0,ZA,1546589684,27,-30.97,22.13,86.31,5.97
45,hilo,90,US,1546584780,73,19.71,-155.08,73.04,12.75
46,puerto ayora,24,EC,1546589667,100,-0.74,-90.35,74.61,7.99
47,pacific grove,1,US,1546588800,73,36.62,-121.92,42.08,4.7
48,provideniya,0,RU,1546589633,100,64.42,-173.23,1.85,6.76
49,banda aceh,32,ID,1546589993,57,5.56,95.32,86.0,6.08
50,samarai,24,PG,1546589733,100,-10.62,150.67,83.03,26.89
51,ilfracombe,0,GB,1546588200,100,51.21,-4.13,32.0,5.82
52,dikson,48,RU,1546589635,100,73.51,80.55,-0.9,8.66
53,hot springs,90,US,1546588920,95,34.5,-93.06,42.8,4.41
54,khandyga,68,RU,1546589994,0,62.65,135.58,-38.66,2.62
55,russell,0,AR,1546589628,63,-33.01,-68.8,49.28,2.17
56,cooma,40,AU,1546585200,26,-36.24,149.13,91.4,12.75
57,chuy,0,UY,1546589420,98,-33.69,-53.46,54.05,4.18
58,zhezkazgan,0,KZ,1546587000,84,47.8,67.71,3.2,15.66
59,port victoria,0,AU,1546589995,64,-34.5,137.49,72.32,15.03
60,leningradskiy,44,RU,1546589695,100,69.38,178.42,-12.74,15.48
61,lalmohan,0,BD,1546589996,48,22.34,90.74,76.73,9.66
62,hasaki,20,JP,1546587000,39,35.73,140.83,46.4,3.36
63,kautokeino,0,NO,1546589996,57,69.01,23.04,1.53,3.06
64,wanxian,88,CN,1546589997,95,30.8,108.39,37.85,2.84
65,sitka,0,US,1546589670,54,37.17,-99.65,17.73,6.98
66,rocha,0,UY,1546589779,86,-34.48,-54.34,48.15,2.73
67,rikitea,92,PF,1546589618,98,-23.12,-134.97,79.11,24.09
68,tasiilaq,92,GL,1546588200,94,65.61,-37.64,35.6,31.09
69,north bend,90,US,1546588560,60,43.41,-124.22,53.06,10.29
70,black river,20,JM,1546588800,73,18.03,-77.85,77.0,5.82
71,bambous virieux,75,MU,1546588800,70,-20.34,57.76,87.8,11.41
72,honningsvag,90,NO,1546588200,86,70.98,25.97,37.4,13.87
73,new norfolk,75,AU,1546587000,77,-42.78,147.06,66.2,11.41
74,kapaa,75,US,1546584960,68,22.08,-159.32,75.02,18.34
75,mataura,88,NZ,1546589618,70,-46.19,168.86,60.98,5.3
76,puerto madryn,0,AR,1546590000,67,-42.77,-65.04,64.49,10.67
77,hermanus,0,ZA,1546589620,45,-34.42,19.24,80.33,3.51
78,severo-kurilsk,80,RU,1546589810,100,50.68,156.12,23.58,10.45
79,padang,40,ID,1546585200,78,-0.92,100.36,82.4,8.05
80,vasteras,90,SE,1546588200,75,59.62,16.55,41.0,2.24
81,mar del plata,0,AR,1546589669,90,-46.43,-67.52,52.07,4.52
82,barrow,0,AR,1546589616,76,-38.31,-60.23,50.0,6.76
83,praia,32,BR,1546589678,90,-20.25,-43.81,65.03,2.73
84,arman,0,RU,1546589776,0,59.7,150.17,-39.65,2.62
85,saint george,90,GR,1546588200,93,39.45,22.34,35.6,3.96
86,hithadhoo,44,MV,1546589649,100,-0.6,73.08,81.14,8.66
87,rincon,90,US,1546588860,100,32.3,-81.24,65.3,6.93
88,ribeira grande,75,PT,1546588800,87,38.52,-28.7,57.2,14.99
89,fairview,1,US,1546588560,61,40.81,-74.0,37.94,7.43
90,palmer,0,AU,1546587000,56,-34.85,139.16,71.6,23.04
91,ahipara,0,NZ,1546589704,90,-35.17,173.16,64.76,15.26
92,mackay,90,CA,1546585200,100,53.65,-115.58,28.4,4.7
93,albanel,88,CA,1546590005,89,48.88,-72.44,18.77,7.54
94,fare,8,PF,1546590006,98,-16.7,-151.02,83.61,6.76
95,jumla,0,NP,1546590006,62,29.28,82.18,34.97,1.83
96,wageningen,90,NL,1546588980,100,51.98,5.66,39.2,4.7
97,togul,12,RU,1546590007,54,53.47,85.91,-10.94,2.95
98,taoudenni,20,ML,1546590007,50,22.68,-3.98,49.19,12.12
99,bluff,36,AU,1546589650,34,-23.58,149.07,88.34,12.35
100,san felipe,0,CL,1546590008,67,-32.75,-70.73,51.98,1.61
101,sabang,48,PH,1546590008,84,13.72,123.58,79.52,17.72
102,roanne,20,FR,1546587000,92,46.04,4.07,30.2,4.7
103,cape town,0,ZA,1546588800,64,-33.93,18.42,73.4,13.87
104,ritchie,0,ZA,1546588800,39,-29.03,24.6,84.2,12.75
105,tessalit,0,ML,1546590009,26,20.2,1.01,61.11,6.98
106,saint-augustin,0,FR,1546587000,80,44.83,-0.61,30.2,4.7
107,kavieng,56,PG,1546589686,100,-2.57,150.8,84.06,12.24
108,neiafu,92,TO,1546590010,100,-18.65,-173.98,79.34,19.17
109,bosaso,0,SO,1546585200,74,11.28,49.18,78.8,11.41
110,sola,75,NO,1546588200,100,58.89,5.65,44.6,20.8
111,tura,0,IN,1546590011,61,25.52,90.21,69.75,2.95
112,norman wells,75,CA,1546587900,78,65.28,-126.83,17.6,10.29
113,isangel,32,VU,1546590011,100,-19.55,169.27,78.44,22.3
114,georgetown,75,GY,1546585200,94,6.8,-58.16,75.2,4.7
115,payo,76,ID,1546590012,80,-3.75,103.64,84.47,1.28
116,avera,90,US,1546588500,93,33.19,-82.53,62.6,4.7
117,vao,88,EE,1546589783,89,59.1,26.19,21.96,11.68
118,tari,0,NG,1546590013,31,12.41,4.49,72.81,15.48
119,nabire,44,ID,1546590013,91,-3.36,135.5,74.84,0.83
120,narsaq,76,GL,1546589718,90,60.91,-46.05,25.07,6.08
121,krasnaya gorbatka,88,RU,1546590014,93,55.87,41.76,25.65,11.45
122,kyzyl-suu,20,KG,1546589771,100,42.34,78.0,30.02,0.6
123,lompoc,1,US,1546588560,75,34.64,-120.46,42.98,4.7
124,praya,75,ID,1546588800,70,-8.71,116.27,84.2,11.41
125,nikolskoye,40,RU,1546587000,79,59.7,30.79,19.4,4.47
126,amga,48,RU,1546590015,60,60.89,131.98,-13.28,3.96
127,tezu,24,IN,1546590015,51,27.93,96.16,54.95,1.28
128,fortuna,0,ES,1546587000,87,38.18,-1.13,42.8,11.41
129,sandwick,88,GB,1546588200,87,54.57,-2.89,33.8,5.82
130,burnie,92,AU,1546590016,89,-41.05,145.91,68.0,24.2
131,erzin,75,TR,1546588200,100,36.95,36.2,59.0,8.05
132,manggar,80,ID,1546590017,97,-2.88,108.27,80.87,4.41
133,airai,68,TL,1546589732,70,-8.93,125.41,77.99,1.83
134,klaksvik,76,FO,1546588200,93,62.23,-6.59,48.2,16.11
135,krasnyy yar,92,RU,1546589880,96,50.7,44.73,24.66,8.21
136,qaanaaq,20,GL,1546589627,82,77.48,-69.36,0.23,11.34
137,bonavista,0,CA,1546590018,100,48.65,-53.11,9.63,6.76
138,san francisco,40,US,1546588560,73,37.78,-122.42,46.04,3.36
139,pedernales,76,EC,1546590019,99,0.07,-80.05,70.56,3.29
140,hamilton,40,CA,1546585200,99,43.26,-79.87,35.6,10.29
141,yantal,56,RU,1546590020,72,56.85,105.25,-11.39,2.62
142,chokurdakh,48,RU,1546589682,67,70.62,147.9,-9.09,3.62
143,bethel,90,US,1546588020,85,60.79,-161.76,15.8,10.29
144,bhandara,20,IN,1546587000,28,21.16,79.65,80.6,3.36
145,bichura,8,RU,1546590021,75,50.59,107.6,-5.0,2.17
146,wanning,75,AT,1546588200,85,48.64,13.53,23.0,2.24
147,wagar,92,US,1546590022,99,31.44,-87.99,60.71,8.66
148,kahului,40,US,1546584960,64,20.89,-156.47,73.94,14.99
149,caravelas,76,BR,1546589691,100,-17.73,-39.27,79.65,20.74
150,belmopan,80,BZ,1546589966,76,17.25,-88.77,77.31,3.51
151,kirov,88,RU,1546590023,89,58.6,49.66,20.7,9.78
152,sao joao da barra,100,BR,1546589349,98,-21.64,-41.05,79.16,7.76
153,grindavik,90,IS,1546588800,100,63.84,-22.43,50.0,29.97
154,naliya,0,IN,1546590024,16,23.26,68.83,87.21,4.63
155,batticaloa,0,LK,1546589647,88,7.71,81.69,81.45,11.56
156,kodiak,1,US,1546587300,57,39.95,-94.76,32.0,3.36
157,sri aman,75,MY,1546585200,70,1.24,111.46,89.6,4.7
158,najran,0,SA,1546585200,13,17.54,44.22,73.4,9.17
159,lorengau,92,PG,1546589890,100,-2.02,147.27,80.55,12.01
160,longyearbyen,20,NO,1546586400,85,78.22,15.63,15.8,5.82
161,yellowknife,90,CA,1546586040,77,62.45,-114.38,-0.41,9.17
162,banyo,0,CM,1546590026,23,6.75,11.81,85.01,4.97
163,avarua,75,CK,1546585200,88,-21.21,-159.78,77.0,1.12
164,cabo san lucas,40,MX,1546584420,67,22.89,-109.91,57.2,6.93
165,saint-michel-des-saints,88,CA,1546590027,85,46.68,-73.92,24.71,9.22
166,sanmenxia,56,CN,1546590027,55,34.77,111.19,36.68,2.62
167,clermont,80,AU,1546590028,29,-22.82,147.64,89.69,10.67
168,dingle,92,PH,1546590028,92,11.0,122.67,76.23,15.37
169,port blair,20,IN,1546585200,66,11.67,92.75,84.2,12.75
170,dunedin,80,NZ,1546589517,67,-45.87,170.5,59.0,3.74
171,seduva,90,LT,1546588200,85,55.77,23.77,23.0,6.93
172,san quintin,12,PH,1546590029,57,17.54,120.52,81.59,2.73
173,east london,0,ZA,1546585200,61,-33.02,27.91,77.0,14.99
174,los llanos de aridane,75,ES,1546587000,63,28.66,-17.92,62.6,5.82
175,abnub,0,EG,1546585200,62,27.27,31.15,55.4,9.17
176,codrington,0,AU,1546585200,54,-28.95,153.24,86.0,16.11
177,panguna,100,PG,1546590031,96,-6.32,155.48,74.21,4.18
178,buin,0,CL,1546588800,42,-33.73,-70.74,62.6,1.83
179,esperance,20,TT,1546585200,83,10.24,-61.45,75.2,3.36
180,maniitsoq,76,GL,1546589706,100,65.42,-52.9,16.38,17.16
181,montefiascone,20,IT,1546588500,74,42.54,12.04,30.2,9.44
182,castro,75,CL,1546585200,93,-42.48,-73.76,50.0,8.05
183,waitati,80,NZ,1546590033,67,-45.75,170.57,59.0,3.74
184,mount gambier,75,AU,1546585200,59,-37.83,140.78,64.4,17.22
185,teguldet,68,RU,1546590033,82,57.31,88.17,1.31,2.73
186,kidal,0,ML,1546590034,29,18.44,1.41,60.44,5.86
187,srednekolymsk,48,RU,1546590034,71,67.46,153.71,-10.35,1.39
188,nanortalik,88,GL,1546589688,91,60.14,-45.24,33.08,25.88
189,ostrovnoy,24,RU,1546589736,83,68.05,39.51,12.6,14.81
190,moose factory,90,CA,1546586280,92,51.26,-80.61,23.0,9.17
191,marawi,8,PH,1546589785,37,8.0,124.29,85.68,1.95
192,fairbanks,1,US,1546585080,76,64.84,-147.72,-20.03,3.18
193,punta alta,0,AR,1546585200,83,-27.46,-55.82,73.4,6.93
194,lebu,0,ET,1546589625,22,8.96,38.73,69.08,12.01
195,faanui,0,PF,1546589626,100,-16.48,-151.75,84.06,6.64
196,barkhan,0,PK,1546590036,75,29.9,69.52,54.81,7.87
197,padilla,0,CO,1546590036,100,3.23,-76.31,43.65,1.95
198,ambon,0,FR,1546587000,92,47.55,-2.56,32.0,8.05
199,khani,75,GE,1546587000,33,41.96,42.96,57.2,23.04
200,novikovo,48,UA,1546590037,100,45.05,34.56,32.36,9.44
201,laguna,0,MX,1546590038,82,27.52,-110.01,40.05,2.39
202,tondano,40,ID,1546588800,74,1.3,124.91,84.2,5.82
203,vestmannaeyjar,90,IS,1546588800,100,63.44,-20.27,48.2,29.97
204,san patricio,48,PY,1546589664,94,-26.98,-56.83,72.86,3.96
205,narrabri,40,AU,1546585200,23,-30.33,149.78,98.6,9.17
206,kaeo,0,NZ,1546590039,72,-35.1,173.78,64.8,14.81
207,torbat-e jam,0,IR,1546590039,76,35.24,60.63,45.77,12.57
208,deputatskiy,48,RU,1546589703,73,69.3,139.9,-17.87,2.84
209,kingaroy,0,AU,1546585200,35,-26.54,151.84,84.2,9.17
210,pevek,56,RU,1546589757,100,69.7,170.27,-13.32,14.58
211,along,0,IN,1546590041,60,28.17,94.8,57.11,2.06
212,ola,0,RU,1546590042,100,59.58,151.3,-1.67,12.01
213,alofi,92,NU,1546585200,94,-19.06,-169.92,75.2,4.7
214,tiksi,32,RU,1546589636,62,71.64,128.87,-7.97,20.51
215,talnakh,64,RU,1546589749,87,69.49,88.39,-0.5,16.15
216,polson,1,US,1546588500,81,47.69,-114.16,37.04,3.36
217,solnechnyy,56,RU,1546590044,57,50.72,136.64,-11.75,2.73
218,quthing,56,LS,1546590044,80,-30.4,27.7,66.06,4.97
219,pohrebyshche,75,UA,1546587000,85,49.49,29.26,24.8,8.95
220,zhanakorgan,0,KZ,1546589798,93,43.91,67.25,33.17,11.12
221,terre haute,1,US,1546589700,95,39.47,-87.41,30.56,3.36
222,yerbogachen,80,RU,1546589748,62,61.28,108.01,-3.42,8.43
223,mehamn,75,NO,1546588200,86,71.03,27.85,37.4,8.05
224,taltal,8,CL,1546589793,96,-25.41,-70.49,56.88,1.5
225,hervey bay,40,AU,1546585200,58,-25.3,152.85,82.4,18.34
226,port hardy,75,CA,1546585200,93,50.7,-127.42,41.0,6.93
227,alyangula,100,AU,1546585200,39,-13.85,136.42,95.0,4.7
228,grand gaube,75,MU,1546588800,70,-20.01,57.66,87.8,11.41
229,dax,0,FR,1546587000,92,43.71,-1.05,24.8,2.24
230,yulara,0,AU,1546585200,7,-25.24,130.99,111.2,5.82
231,muana,44,BR,1546589843,96,-1.53,-49.22,78.98,10.33
232,pisco,40,PE,1546585200,88,-13.71,-76.2,69.8,5.82
233,okhotsk,0,RU,1546589648,100,59.36,143.24,-17.51,7.09
234,maltahohe,0,NA,1546590051,35,-24.83,16.98,87.8,6.98
235,waddan,0,LY,1546589759,69,29.16,16.14,48.11,4.97
236,alice springs,0,AU,1546587000,5,-23.7,133.88,109.4,11.41
237,barra do garcas,0,BR,1546590052,89,-15.89,-52.26,72.41,3.18
238,pangnirtung,12,CA,1546589715,37,66.15,-65.72,-25.2,2.17
239,yar-sale,76,RU,1546589820,100,66.83,70.83,9.81,8.55
240,tazovskiy,76,RU,1546589723,86,67.47,78.7,15.35,12.8
241,valparaiso,1,US,1546588560,75,41.47,-87.06,33.08,9.17
242,namibe,75,AO,1546585200,83,-15.19,12.15,73.4,4.63
243,itaituba,36,BR,1546590054,97,-4.26,-55.99,73.4,2.17
244,yagodnoye,12,RU,1546590054,0,62.52,149.63,-37.49,2.17
245,elizabeth city,90,US,1546588800,86,36.3,-76.22,48.74,4.7
246,portland,90,US,1546584780,56,45.52,-122.67,53.06,14.99
247,saskylakh,48,RU,1546589774,71,71.97,114.09,-5.81,13.02
248,burriana,0,ES,1546587000,100,39.89,-0.08,33.8,2.24
249,nemuro,20,JP,1546585200,67,43.32,145.57,21.2,2.24
250,east peoria,1,US,1546588560,92,40.67,-89.58,31.82,3.36
251,londa,0,IT,1546588200,92,43.86,11.57,23.0,2.24
252,broken hill,24,AU,1546585200,8,-31.97,141.45,111.2,8.05
253,bordighera,0,IT,1546584900,32,43.79,7.66,41.0,5.19
254,gallup,1,US,1546588380,91,35.53,-108.74,1.94,3.36
255,atbasar,64,KZ,1546590067,82,51.81,68.36,5.81,4.18
256,hudson bay,44,CA,1546590069,85,52.86,-102.4,21.51,4.85
257,sawakin,32,SD,1546590070,93,19.1,37.33,75.96,6.64
258,high level,0,CA,1546589629,77,58.52,-117.13,13.5,4.41
259,iquique,90,CL,1546585200,68,-20.22,-70.14,71.6,2.17
260,tucurui,20,BR,1546590071,97,-3.77,-49.67,71.42,2.28
261,gatton,0,AU,1546587000,51,-27.56,152.28,86.0,14.99
262,bocas del toro,56,PA,1546590071,100,9.33,-82.25,78.03,4.41
263,hendaye,20,FR,1546587000,100,43.37,-1.77,30.2,3.36
264,soyo,44,AO,1546590072,78,-6.13,12.37,84.92,3.85
265,murchison,32,AU,1546590073,36,-36.62,145.22,91.8,11.45
266,inuvik,90,CA,1546585200,84,68.36,-133.71,6.8,3.36
267,singkang,75,MY,1546585200,62,2.1,102.8,89.6,9.17
268,tabou,80,CI,1546590075,100,4.42,-7.36,76.95,4.85
269,belaya gora,12,RU,1546589674,32,68.54,146.19,-21.69,2.84
270,kyzyl-oktyabr,8,KG,1546590075,81,42.77,75.73,23.9,1.72
271,sandnessjoen,75,NO,1546588200,100,66.02,12.63,44.6,8.05
272,ramenskoye,75,RU,1546587000,92,55.57,38.23,24.8,4.47
273,vilcun,0,CL,1546585200,87,-38.65,-72.23,53.6,6.93
274,gazli,92,UZ,1546590077,80,40.13,63.45,44.69,12.24
275,praia da vitoria,75,PT,1546588800,82,38.73,-27.07,60.8,16.82
276,rundu,68,NA,1546590078,100,-17.91,19.77,73.26,4.41
277,xinzhou,0,CN,1546590078,61,38.41,112.73,26.1,2.17
278,lagoa,20,PT,1546588800,81,37.14,-8.45,50.0,10.29
279,general roca,0,AR,1546585200,51,-39.03,-67.58,62.6,2.24
280,te anau,56,NZ,1546589619,78,-45.41,167.72,55.4,3.06
281,kenai,75,US,1546586940,87,60.55,-151.26,12.92,8.05
282,brae,40,GB,1546588200,93,60.4,-1.35,48.2,18.34
283,alexandria,90,US,1546588440,82,31.31,-92.44,46.04,13.87
284,mahajanga,40,MG,1546588800,74,-15.72,46.32,86.0,4.7
285,geraldton,90,CA,1546585200,86,49.72,-86.95,33.8,13.87
286,arlit,0,NE,1546590083,89,18.74,7.39,58.82,4.52
287,port moresby,75,PG,1546585200,78,-9.47,147.16,82.4,11.41
288,laela,80,TZ,1546590084,80,-8.57,32.05,70.97,3.4
289,mount hagen,40,PG,1546585200,69,-5.86,144.23,75.2,3.18
290,tuktoyaktuk,68,CA,1546589647,100,69.44,-133.03,8.01,11.23
291,dalvik,0,SE,1546588200,100,57.79,14.13,28.4,6.93
292,pringsewu,24,ID,1546590085,65,-5.36,104.98,86.13,3.85
293,talcahuano,0,CL,1546585200,87,-36.72,-73.12,53.6,9.17
294,nishihara,20,JP,1546587000,49,35.74,139.53,48.2,11.41
295,teya,5,MX,1546588020,94,21.05,-89.07,73.4,4.7
296,san cristobal,40,EC,1546585200,100,-0.39,-78.55,55.4,5.82
297,manitouwadge,88,CA,1546590087,94,49.12,-85.84,32.0,7.99
298,progreso,0,UY,1546588800,87,-34.68,-56.22,53.6,6.93
299,coihaique,75,CL,1546585200,71,-45.58,-72.07,55.4,4.7
300,gizo,0,IL,1546588200,55,31.8,34.94,62.6,5.82
301,alugan,56,PH,1546590090,92,12.22,125.48,79.61,20.74
302,ossora,0,RU,1546590090,100,59.24,163.07,-17.69,4.18
303,haines junction,80,CA,1546589727,77,60.75,-137.51,4.28,2.17
304,victoria,75,BN,1546587000,74,5.28,115.24,87.8,10.29
305,huarmey,12,PE,1546590091,91,-10.07,-78.15,56.3,2.62
306,henties bay,0,NA,1546590092,94,-22.12,14.28,67.1,5.97
307,los palacios,8,CU,1546590092,91,22.59,-83.25,64.98,2.39
308,ilulissat,80,GL,1546588200,61,69.22,-51.1,15.8,11.41
309,mayo,75,CA,1546585200,83,63.59,-135.9,-9.41,2.62
310,estelle,90,US,1546589700,88,32.87,-97.01,37.94,12.75
311,nome,1,US,1546588500,86,30.04,-94.42,41.18,6.93
312,sangueya,12,GN,1546590094,71,10.7,-14.37,72.32,4.18
313,poli,0,CM,1546590094,31,8.48,13.24,82.71,3.96
314,copiapo,0,CL,1546585200,87,-27.37,-70.33,59.0,1.12
315,torbay,20,CA,1546585200,84,47.66,-52.73,3.2,6.93
316,varlamovo,0,RU,1546590095,82,54.62,60.68,3.2,11.23
317,hami,56,CN,1546590096,62,42.84,93.51,20.21,4.41
318,aklavik,90,CA,1546585200,84,68.22,-135.01,6.8,3.36
319,chunoyar,0,RU,1546590097,77,57.45,97.32,-12.29,2.39
320,bacolod,92,PH,1546590097,96,10.68,122.95,75.06,10.78
321,jinka,8,ET,1546590098,36,5.79,36.57,81.81,2.06
322,vila velha,75,BR,1546588800,94,-3.71,-38.6,78.8,17.22
323,bardstown,1,US,1546589700,95,37.81,-85.47,37.4,4.7
324,strezhevoy,90,RU,1546587000,85,60.73,77.6,17.6,13.42
325,luderitz,0,NA,1546589630,93,-26.65,15.16,64.98,8.1
326,bathsheba,40,BB,1546585200,78,13.22,-59.52,77.0,16.11
327,okato,0,NZ,1546590101,89,-39.19,173.88,64.71,12.91
328,horsham,68,AU,1546590101,30,-36.71,142.2,85.01,19.84
329,priiskovyy,8,RU,1546590102,31,51.93,116.63,-22.28,1.72
330,vardo,1,US,1546588800,84,39.62,-77.74,33.8,3.18
331,grand-santi,92,GF,1546590102,99,4.27,-54.38,74.12,2.51
332,matagami,0,NG,1546590103,38,9.67,8.4,77.76,4.74
333,upata,92,VE,1546590103,98,8.02,-62.41,68.81,4.41
334,benavente,75,PT,1546588800,100,38.98,-8.82,44.6,6.93
335,babstovo,68,RU,1546590104,83,48.12,132.48,5.76,2.95
336,orcopampa,44,PE,1546590104,94,-15.27,-72.34,31.1,1.16
337,ponta delgada,75,PT,1546588800,82,37.73,-25.67,64.4,13.87
338,carutapera,68,BR,1546589709,85,-1.2,-46.02,80.1,10.0
339,katsuura,75,JP,1546585200,57,33.93,134.5,48.2,3.36
340,beringovskiy,0,RU,1546590105,100,63.05,179.32,-21.02,10.56
341,adrar,0,DZ,1546589846,55,27.87,-0.29,44.55,10.67
342,roblin,56,CA,1546590106,58,51.23,-101.35,14.18,3.18
343,luang prabang,75,LA,1546585200,73,19.89,102.14,69.8,2.24
344,san julian,0,SV,1546588200,78,13.7,-89.56,73.4,3.36
345,husavik,44,CA,1546589684,70,50.56,-96.99,17.69,5.75
346,sangar,56,RU,1546589744,41,63.92,127.47,-26.87,4.52
347,diffa,44,NE,1546590110,35,13.32,12.61,70.16,9.1
348,verkhnyaya inta,68,RU,1546590110,71,65.99,60.32,10.98,7.09
349,zhigansk,64,RU,1546590111,66,66.77,123.37,-14.49,9.22
350,agua blanca,92,VE,1546590112,73,9.66,-69.11,75.33,2.73
351,komsomolets,92,RU,1546589808,94,52.77,41.29,27.05,5.97
352,dresden,90,DE,1546588200,100,51.05,13.74,30.2,6.93
353,ponta do sol,56,BR,1546589734,92,-20.63,-46.0,64.58,2.28
354,melo,20,UY,1546590116,86,-32.37,-54.17,51.89,4.18
355,katobu,92,ID,1546590116,86,-4.94,122.53,84.96,1.39
356,kot samaba,0,PK,1546590116,92,28.55,70.47,64.53,5.41
357,buala,76,SB,1546589708,100,-8.15,159.59,79.61,13.35
358,camacha,40,PT,1546588800,67,33.08,-16.33,60.8,8.05
359,sobrance,90,SK,1546588800,68,48.74,22.18,26.6,8.95
360,atasu,0,KZ,1546590118,81,48.68,71.64,0.36,13.13
361,kavaratti,0,IN,1546590118,100,10.57,72.64,82.67,4.74
362,tuatapere,92,NZ,1546589726,82,-46.13,167.69,60.62,10.33
363,dudinka,64,RU,1546590119,74,69.41,86.18,3.15,18.5
364,ancud,75,CL,1546585200,93,-41.87,-73.83,50.0,8.05
365,guerrero negro,0,MX,1546589764,99,27.97,-114.04,41.81,5.41
366,noumea,20,NC,1546588800,50,-22.28,166.46,78.8,10.29
367,meulaboh,76,ID,1546589714,100,4.14,96.13,83.21,4.18
368,sibu,75,MY,1546585200,56,2.29,111.83,93.2,5.82
369,kaitangata,48,NZ,1546589710,80,-46.28,169.85,56.75,4.97
370,san andres,32,PH,1546590126,93,13.32,122.68,82.22,23.31
371,bowen,0,AU,1546585200,65,-20.01,148.25,82.4,18.34
372,ayan,0,TR,1546590130,81,40.67,33.6,30.33,14.25
373,dwarka,40,IN,1546587000,76,28.58,77.04,57.2,3.36
374,kumluca,32,TR,1546590131,87,36.37,30.29,39.02,1.72
375,labuhan,48,ID,1546589724,60,-2.54,115.51,87.08,3.4
376,limpapa,40,PH,1546585200,66,7.12,121.91,86.0,8.05
377,rodez,0,FR,1546587000,68,44.35,2.57,28.4,6.93
378,limon,1,US,1546588500,87,39.26,-103.69,15.08,5.82
379,bazpur,24,IN,1546590134,57,29.15,79.12,61.11,2.95
380,huangmei,88,CN,1546590136,100,30.1,115.95,44.91,1.95
381,kungurtug,0,RU,1546589673,64,50.6,97.53,-8.19,2.62
382,kudahuvadhoo,92,MV,1546589791,100,2.67,72.89,82.49,14.25
383,that phanom,75,TH,1546585200,61,16.94,104.73,84.2,4.7
384,copacabana,40,CO,1546585200,100,6.35,-75.51,51.8,2.24
385,trairi,56,BR,1546590138,100,-3.28,-39.27,79.88,18.95
386,maues,20,BR,1546590138,89,-3.38,-57.72,76.95,3.29
387,abbeville,90,FR,1546587000,100,50.11,1.83,37.4,3.36
388,natal,40,BR,1546588800,88,-5.81,-35.21,75.2,3.36
389,prainha,76,BR,1546589805,81,-1.8,-53.48,79.52,6.2
390,pombas,36,BR,1546590141,84,-15.9,-54.74,73.08,2.95
391,poum,90,MK,1546588800,67,41.28,20.71,23.0,11.41
392,outlook,36,CA,1546590142,70,51.48,-107.04,18.5,2.73
393,hofu,75,JP,1546585200,75,34.05,131.57,50.0,2.24
394,filingue,8,NE,1546590143,35,14.35,3.32,67.28,12.01
395,lasa,75,CY,1546587000,82,34.92,32.53,64.4,17.22
396,asyut,0,EG,1546585200,62,27.18,31.19,55.4,9.17
397,dakar,88,SN,1546587000,18,14.69,-17.45,68.0,11.41
398,inhambane,75,MZ,1546585200,100,-23.87,35.38,77.0,6.93
399,yarada,0,IN,1546587000,45,17.65,83.27,82.4,12.75
400,hokitika,24,NZ,1546590145,97,-42.72,170.96,60.53,9.55
401,rio tuba,32,PH,1546590145,88,8.51,117.43,82.49,18.84
402,kimbe,88,PG,1546589762,100,-5.56,150.15,76.5,4.18
403,elk river,1,US,1546589700,86,45.3,-93.57,33.8,8.43
404,grootfontein,20,NA,1546588800,65,-19.56,18.1,82.4,6.93
405,porto novo,75,BR,1546585200,100,-23.68,-45.44,66.2,1.12
406,sao geraldo do araguaia,12,BR,1546590147,93,-6.4,-48.55,71.42,2.95
407,oistins,40,BB,1546585200,78,13.07,-59.53,77.0,16.11
408,srandakan,88,ID,1546590147,97,-7.94,110.25,77.0,3.74
409,mahalapye,12,BW,1546590148,79,-23.11,26.83,78.75,8.88
410,pasni,24,PK,1546590148,91,25.26,63.48,74.12,4.63
411,pasighat,0,IN,1546590148,61,28.06,95.33,59.4,1.95
412,itoman,75,JP,1546587000,49,26.12,127.67,72.32,11.41
413,vila franca do campo,75,PT,1546588800,82,37.72,-25.43,64.4,13.87
414,thinadhoo,92,MV,1546589701,100,0.53,72.93,80.15,9.66
415,sioux lookout,90,CA,1546587780,100,50.1,-91.92,30.2,5.82
416,hirara,75,JP,1546585200,78,24.8,125.28,73.4,13.87
417,clyde river,90,CA,1546587240,83,70.47,-68.59,-4.01,6.93
418,elko,1,US,1546588560,79,40.83,-115.76,8.96,4.7
419,buraydah,0,SA,1546585200,76,26.33,43.97,51.8,10.29
420,baykit,56,RU,1546590151,67,61.68,96.39,-5.36,6.64
421,guaymas,0,MX,1546590151,73,27.92,-110.9,35.69,3.62
422,terrace,90,CA,1546587900,86,54.52,-128.61,30.2,17.22
423,lisala,0,CD,1546590152,74,2.15,21.52,86.27,3.85
424,mercedes,0,UY,1546589716,88,-33.25,-58.03,53.42,3.4
425,auki,0,NG,1546590153,32,12.18,6.51,72.05,12.35
426,governador dix-sept rosado,0,BR,1546590153,75,-5.46,-37.52,76.5,8.43
427,parabel,88,RU,1546590153,79,58.71,81.5,4.68,6.98
428,jambi,24,ID,1546590154,65,-1.6,103.62,89.33,3.85
429,sanchor,0,IN,1546590154,49,24.76,71.77,80.28,5.41
430,fuerte olimpo,0,BR,1546590155,71,-21.04,-57.87,79.34,5.41
431,kalmunai,0,LK,1546590155,67,7.42,81.82,83.3,11.68
432,ourem,0,PT,1546585200,93,39.64,-8.59,37.4,3.36
433,lashio,8,MM,1546590156,65,22.93,97.75,70.38,2.39
434,kichmengskiy gorodok,80,RU,1546590156,91,59.99,45.81,24.3,3.74
435,bhatkal,0,IN,1546590156,84,13.97,74.57,85.82,5.97
436,belyy yar,20,RU,1546587000,75,53.6,91.39,-13.01,2.24
437,novobiryusinskiy,0,RU,1546590157,72,56.96,97.71,-10.62,2.62
438,altay,64,CN,1546590157,78,47.83,88.13,14.0,2.39
439,baglan,0,GB,1546588200,91,51.62,-3.81,32.0,5.82
440,olga,1,US,1546588680,53,34.11,-118.17,51.08,2.39
441,puerto escondido,0,MX,1546590158,100,15.86,-97.07,80.33,1.95
442,yumen,48,CN,1546590158,88,40.29,97.04,17.1,3.4
443,atar,12,MR,1546589622,41,20.52,-13.05,53.87,6.98
444,vostok,68,RU,1546590159,78,46.45,135.83,5.72,2.62
445,atambua,88,ID,1546590159,100,-9.11,124.89,78.98,6.42
446,araouane,0,ML,1546589737,36,18.9,-3.53,57.02,9.33
447,fort nelson,5,CA,1546585200,84,58.81,-122.69,5.0,2.24
448,broome,75,GB,1546588560,100,52.47,1.45,35.6,4.7
449,saldanha,0,PT,1546590160,73,41.42,-6.55,20.61,2.62
450,halifax,90,CA,1546585200,92,44.65,-63.58,19.4,9.17
451,sao miguel do araguaia,20,BR,1546590161,84,-13.28,-50.16,73.8,7.2
452,finale ligure,0,IT,1546588200,30,44.17,8.34,42.8,8.05
453,saint anthony,90,US,1546588800,87,43.97,-111.68,15.08,2.51
454,snyder,1,US,1546588500,89,32.72,-100.92,31.1,10.29
455,urusha,8,RU,1546590162,70,54.05,122.9,-16.7,2.62
456,kokkola,0,FI,1546588200,100,63.84,23.13,28.4,4.7
457,conde,48,BR,1546589785,92,-11.81,-37.61,77.81,7.54
458,collie,0,AU,1546590163,36,-33.36,116.15,73.58,12.8
459,teahupoo,40,PF,1546587240,69,-17.83,-149.27,80.6,4.7
460,pitkyaranta,92,RU,1546590164,85,61.57,31.48,15.53,6.98
461,walvis bay,90,NA,1546585200,68,-22.95,14.51,66.2,10.29
462,presidencia roque saenz pena,68,AR,1546590164,82,-26.79,-60.44,72.14,9.44
463,dembi dolo,0,ET,1546590165,33,8.53,34.8,85.05,4.41
464,america dourada,0,BR,1546590165,84,-11.46,-41.44,65.39,5.75
465,half moon bay,40,US,1546588560,73,37.46,-122.43,46.04,3.36
466,luwuk,88,ID,1546590165,92,-0.95,122.79,81.14,2.28
467,diu,0,IN,1546590166,20,20.71,70.98,88.97,3.85
468,hofn,90,IS,1546588800,93,64.25,-15.21,46.4,4.7
469,santa isabel do rio negro,44,BR,1546590166,100,-0.41,-65.02,73.22,3.18
470,methven,0,NZ,1546590167,71,-43.63,171.65,58.28,7.54
471,sakaiminato,75,JP,1546585200,46,35.55,133.23,51.8,10.29
472,concordia,8,AR,1546589774,94,-31.4,-58.02,63.0,7.99
473,komsomolskiy,80,RU,1546589638,80,67.55,63.78,6.26,4.74
474,thompson,40,CA,1546585200,92,55.74,-97.86,23.0,10.29
475,dangriga,36,BZ,1546590168,80,16.97,-88.23,80.28,12.68
476,thai binh,90,VN,1546587000,82,20.45,106.33,64.4,5.82
477,oksfjord,75,NO,1546588200,100,70.24,22.35,35.6,14.99
478,de land,1,US,1546588560,92,40.12,-88.65,30.02,6.93
479,homa bay,40,KE,1546585200,54,-0.53,34.45,80.6,4.7
480,santiago del estero,88,AR,1546590169,91,-27.8,-64.26,67.73,2.95
481,paracatu,80,BR,1546590170,83,-17.22,-46.87,69.8,2.17
482,nouadhibou,44,MR,1546585200,33,20.93,-17.03,62.6,14.99
483,pangai,92,TO,1546590170,100,-19.8,-174.35,76.01,22.3
484,tocopilla,48,CL,1546589740,100,-22.09,-70.2,60.08,4.18
485,chiredzi,92,ZW,1546589641,100,-21.05,31.67,72.05,6.76
486,joshimath,36,IN,1546590171,95,30.57,79.57,16.7,0.38
487,garowe,0,SO,1546589645,41,8.41,48.48,82.53,10.67
488,turbat,20,PK,1546590172,57,26.0,63.05,76.23,4.97
489,novobohdanivka,0,UA,1546587000,92,46.87,31.96,28.4,13.42
490,rairangpur,0,IN,1546585200,27,22.27,86.18,75.2,4.63
491,miyazu,75,JP,1546588800,100,35.58,135.2,44.6,2.24
492,beloha,80,MG,1546589784,52,-25.17,45.06,88.2,9.66
493,biak,88,ID,1546589746,92,-0.91,122.88,81.14,2.28
494,bilma,0,NE,1546590174,36,18.69,12.92,65.57,4.63
495,iqaluit,5,CA,1546588800,74,63.75,-68.52,-25.61,3.36
496,mukhen,68,RU,1546590174,78,48.19,136.14,8.6,2.39
497,guanica,0,PR,1546590175,100,17.97,-66.91,74.12,12.01
498,sumoto,40,JP,1546588800,57,34.35,134.9,48.2,1.12
499,muzhi,0,RU,1546590175,64,65.4,64.7,6.48,10.45
500,maymyo,0,MM,1546587000,39,22.03,96.47,84.2,4.7
501,kiunga,64,PG,1546590176,88,-6.12,141.3,78.53,4.29
502,port hedland,0,AU,1546587000,62,-20.31,118.58,89.6,20.8
503,rabo de peixe,75,PT,1546588800,82,37.8,-25.58,64.4,13.87
504,hornepayne,92,CA,1546590177,88,49.22,-84.78,33.44,10.11
505,svirstroy,80,RU,1546590177,87,60.8,33.72,20.16,3.62
506,atherton,90,GB,1546588200,69,53.52,-2.49,35.6,2.24
507,souillac,0,FR,1546587000,70,45.6,-0.6,32.0,8.05
508,wajima,75,JP,1546585200,65,37.4,136.9,41.0,3.36
509,puerto baquerizo moreno,8,EC,1546590179,100,-0.9,-89.6,75.83,12.12
510,angoche,32,MZ,1546590179,94,-16.23,39.91,86.9,9.89
511,margate,75,AU,1546587000,77,-43.03,147.26,66.2,11.41
512,podor,0,MR,1546588800,35,16.65,-14.96,57.2,2.24
513,turochak,32,RU,1546590180,51,52.26,87.12,4.28,2.28
514,rumonge,0,BI,1546590180,100,-3.97,29.44,76.86,3.06
515,sambava,48,MG,1546590180,100,-14.27,50.17,83.48,3.96
516,bayir,75,TR,1546588200,71,37.27,28.22,51.8,4.7
517,san jose,24,PH,1546589893,73,15.79,120.99,76.23,7.43
518,la romana,75,DO,1546588800,78,18.43,-68.97,77.0,11.41
519,mineral wells,90,US,1546588500,85,32.81,-98.11,37.94,13.87
520,pangody,80,RU,1546589740,84,65.85,74.49,17.1,11.56
521,gravdal,75,NO,1546588200,100,59.79,5.78,44.6,11.41
522,jakar,0,BT,1546590183,21,27.55,90.75,36.63,2.95
523,suna,48,KE,1546590184,84,-1.08,34.43,75.29,9.44
524,constitucion,8,MX,1546589763,80,23.99,-104.67,36.59,3.18
525,havre-saint-pierre,90,CA,1546585200,84,50.23,-63.6,5.0,8.05
526,rexburg,90,US,1546588800,87,43.82,-111.79,15.08,2.51
527,kindu,0,CD,1546590185,76,-2.95,25.92,81.59,0.94
528,hope mills,90,US,1546588800,93,34.97,-78.95,57.02,6.2
529,heihe,0,RU,1546587000,64,50.24,127.51,-4.01,8.95
530,los algarrobos,92,EC,1546590186,99,-3.25,-79.94,72.23,2.73
531,marsa matruh,0,EG,1546585200,71,31.35,27.25,50.0,8.05
532,bandarbeyla,32,SO,1546589745,100,9.49,50.81,77.09,16.6
533,bay roberts,90,CA,1546588800,78,47.58,-53.28,12.2,5.82
534,aksu,75,KZ,1546587000,83,52.04,76.93,-5.81,4.47
535,tucuman,24,PE,1546590188,87,-17.17,-70.89,54.14,1.5
536,laizhou,0,CN,1546590188,84,37.18,119.93,34.25,9.78
537,koratla,0,IN,1546590188,56,18.82,78.72,80.96,6.53
538,agadez,0,NE,1546585200,38,16.97,7.99,55.4,4.85
539,butare,20,CD,1546590189,63,-1.15,29.25,72.86,3.18
540,gold coast,92,AU,1546587000,57,-28.0,153.41,80.6,9.17
541,keflavik,90,IS,1546588800,100,64.0,-22.56,50.0,29.97
